City_ID,City,Lat,Lng,Current Conditions,Max Temp,Humidity,Cloudiness,Wind Speed,Rainfall,Snowfall,Country,Date
0,Ribeira Grande,38.52,-28.7,broken clouds,62.6,72,75,5.82,0.0,0.0,PT,2020-04-05 15:52:22
1,Ponta Delgada,37.73,-25.67,light intensity shower rain,59.0,100,75,13.87,0.0,0.0,PT,2020-04-05 15:54:10
2,Muros,42.78,-9.06,overcast clouds,63.0,93,90,10.29,0.0,0.0,ES,2020-04-05 15:52:22
3,Dalbandin,28.89,64.41,few clouds,83.07,11,21,2.37,0.0,0.0,PK,2020-04-05 15:49:14
4,Cape Town,-33.93,18.42,light rain,66.2,72,75,20.8,0.0,0.0,ZA,2020-04-05 15:53:01
5,Terme,41.21,36.97,light rain,51.8,87,75,3.36,0.0,0.0,TR,2020-04-05 15:49:14
6,Georgetown,5.41,100.34,light rain,78.8,100,20,2.24,0.0,0.0,MY,2020-04-05 15:51:16
7,Statesboro,32.45,-81.78,broken clouds,75.99,56,75,4.7,0.0,0.0,US,2020-04-05 15:49:14
8,Saint-Pierre,-21.34,55.48,broken clouds,78.8,78,75,19.46,0.0,0.0,RE,2020-04-05 15:53:12
9,Asyut,27.18,31.18,broken clouds,88.68,14,67,14.72,0.0,0.0,EG,2020-04-05 15:49:14
10,Kahramanmaras,38.0,37.0,broken clouds,64.4,48,75,14.99,0.0,0.0,TR,2020-04-05 15:49:15
11,Kanadukathan,10.18,78.78,few clouds,87.8,66,20,9.17,0.0,0.0,IN,2020-04-05 15:49:15
12,Bambous Virieux,-20.34,57.76,scattered clouds,78.8,78,40,6.93,0.0,0.0,MU,2020-04-05 15:54:11
13,Hofn,64.25,-15.21,drizzle rain,35.6,74,90,25.28,0.0,0.0,IS,2020-04-05 15:54:11
14,Lagoa,39.05,-27.98,light rain,56.95,80,100,18.77,0.68,0.0,PT,2020-04-05 15:44:12
15,Bredasdorp,-34.53,20.04,broken clouds,68.0,52,67,21.92,0.0,0.0,ZA,2020-04-05 15:52:11
16,Port Elizabeth,-33.92,25.57,few clouds,66.2,77,20,16.11,0.0,0.0,ZA,2020-04-05 15:53:11
17,Busselton,-33.65,115.33,overcast clouds,64.99,41,88,11.86,0.0,0.0,AU,2020-04-05 15:51:51
18,Saint-Philippe,-21.36,55.77,broken clouds,78.8,78,75,19.46,0.0,0.0,RE,2020-04-05 15:52:07
19,Vila Franca Do Campo,37.72,-25.43,light intensity shower rain,59.0,100,75,13.87,0.0,0.0,PT,2020-04-05 15:54:12
20,Chuy,-33.7,-53.46,clear sky,73.22,53,0,7.25,0.0,0.0,UY,2020-04-05 15:52:09
21,Punta Arenas,-53.15,-70.92,few clouds,44.6,65,20,25.28,0.0,0.0,CL,2020-04-05 15:54:12
22,Sunderland,54.9,-1.38,overcast clouds,64.99,34,100,16.11,0.0,0.0,GB,2020-04-05 15:49:16
23,Hithadhoo,-0.6,73.08,light rain,83.16,75,94,7.83,0.11,0.0,MV,2020-04-05 15:54:13
24,Guadix,37.3,-3.14,broken clouds,71.6,40,65,10.29,0.0,0.0,ES,2020-04-05 15:49:17
25,Comodoro Rivadavia,-45.87,-67.5,light rain,50.0,61,40,25.28,0.0,0.0,AR,2020-04-05 15:44:52
26,Matagami,49.75,-77.63,light snow,30.2,86,90,14.99,0.0,0.0,CA,2020-04-05 15:44:44
27,Ushuaia,-54.8,-68.3,drizzle,39.2,86,75,13.87,0.0,0.0,AR,2020-04-05 15:49:13
28,Formosa Do Rio Preto,-11.05,-45.19,clear sky,88.43,45,0,5.48,0.0,0.0,BR,2020-04-05 15:49:17
29,Mar Del Plata,-38.0,-57.56,overcast clouds,72.0,68,100,12.75,0.0,0.0,AR,2020-04-05 15:51:53
30,Kalmunai,7.42,81.82,clear sky,82.31,74,0,5.12,0.0,0.0,LK,2020-04-05 15:54:13
31,Rondonopolis,-16.47,-54.64,clear sky,88.9,57,1,5.03,0.0,0.0,BR,2020-04-05 15:49:17
32,Margate,51.38,1.39,clear sky,68.0,39,0,12.75,0.0,0.0,GB,2020-04-05 15:49:43
33,Bengkulu,-3.8,102.27,moderate rain,78.73,84,100,5.41,7.36,0.0,ID,2020-04-05 15:44:18
34,Henties Bay,-22.12,14.28,clear sky,62.01,85,8,5.01,0.0,0.0,NA,2020-04-05 15:54:14
35,Hermanus,-34.42,19.23,light rain,64.0,79,93,10.0,0.28,0.0,ZA,2020-04-05 15:54:14
36,Port Alfred,-33.59,26.89,scattered clouds,64.99,90,28,4.0,0.0,0.0,ZA,2020-04-05 15:54:14
37,Teeli,51.03,90.23,scattered clouds,30.42,61,42,1.97,0.0,0.0,RU,2020-04-05 15:49:18
38,Jamestown,42.1,-79.24,broken clouds,48.99,81,75,9.17,0.0,0.0,US,2020-04-05 15:50:43
39,Hambantota,6.12,81.12,few clouds,80.6,94,20,2.24,0.0,0.0,LK,2020-04-05 15:54:15
40,Tirano,46.22,10.17,overcast clouds,64.0,45,86,12.75,0.0,0.0,IT,2020-04-05 15:49:18
41,Sao Filipe,14.9,-24.5,clear sky,74.48,73,1,14.52,0.0,0.0,CV,2020-04-05 15:54:15
42,Manta,-0.95,-80.73,scattered clouds,84.2,70,40,6.93,0.0,0.0,EC,2020-04-05 15:49:18
43,Puri,19.8,85.85,mist,82.4,88,20,12.59,0.0,0.0,IN,2020-04-05 15:49:19
44,Meulaboh,4.14,96.13,light rain,80.47,80,100,5.06,0.2,0.0,ID,2020-04-05 15:44:30
45,Pangnirtung,66.15,-65.71,clear sky,16.81,82,0,5.91,0.0,0.0,CA,2020-04-05 15:54:16
46,Axim,4.87,-2.24,clear sky,88.47,62,0,12.01,0.0,0.0,GH,2020-04-05 15:44:26
47,Bata,1.86,9.77,scattered clouds,89.6,70,40,11.41,0.0,0.0,GQ,2020-04-05 15:49:19
48,Musoma,-1.5,33.8,few clouds,80.6,69,20,5.82,0.0,0.0,TZ,2020-04-05 15:49:20
49,Horki,54.29,30.98,broken clouds,43.5,53,73,14.14,0.0,0.0,BY,2020-04-05 15:49:20
50,Sao Joao Da Barra,-21.64,-41.05,broken clouds,80.6,65,75,5.82,0.0,0.0,BR,2020-04-05 15:44:28
51,Torbay,47.67,-52.73,overcast clouds,32.0,79,90,14.99,0.0,0.0,CA,2020-04-05 15:54:16
52,Ust-Koksa,50.27,85.61,clear sky,40.05,44,0,4.5,0.0,0.0,RU,2020-04-05 15:49:20
53,Qaanaaq,77.48,-69.36,overcast clouds,16.36,87,100,3.85,0.0,0.0,GL,2020-04-05 15:54:17
54,Tevriz,57.51,72.4,light rain,36.52,88,100,12.12,0.98,0.0,RU,2020-04-05 15:49:20
55,Cidreira,-30.18,-50.21,clear sky,74.82,60,0,10.6,0.0,0.0,BR,2020-04-05 15:52:33
56,Harper,4.38,-7.72,broken clouds,87.57,67,61,7.67,0.0,0.0,LR,2020-04-05 15:54:17
57,Quebec,46.81,-71.21,overcast clouds,44.6,92,90,3.36,0.0,0.0,CA,2020-04-05 15:46:18
58,Potchefstroom,-26.72,27.1,clear sky,75.45,20,0,5.86,0.0,0.0,ZA,2020-04-05 15:49:21
59,Causapscal,48.35,-67.23,overcast clouds,36.66,86,95,3.83,0.0,0.0,CA,2020-04-05 15:49:21
60,Arraial Do Cabo,-22.97,-42.03,scattered clouds,80.6,65,40,8.05,0.0,0.0,BR,2020-04-05 15:52:09
61,Troy,42.61,-83.15,overcast clouds,46.0,80,90,6.93,0.0,0.0,US,2020-04-05 15:49:21
62,Vera Cruz,-12.63,-41.03,broken clouds,87.8,66,75,4.7,0.0,0.0,BR,2020-04-05 15:49:22
63,Padang,-0.95,100.35,overcast clouds,79.59,73,96,1.14,0.0,0.0,ID,2020-04-05 15:54:18
64,Namibe,-15.2,12.15,clear sky,75.58,70,0,12.19,0.0,0.0,AO,2020-04-05 15:54:18
65,Concarneau,47.88,-3.92,overcast clouds,61.0,82,90,12.75,0.0,0.0,FR,2020-04-05 15:49:22
66,Pasni,25.26,63.47,scattered clouds,83.97,42,38,15.01,0.0,0.0,PK,2020-04-05 15:49:22
67,Vargem Alta,-20.67,-41.01,overcast clouds,80.01,69,93,2.66,0.0,0.0,BR,2020-04-05 15:49:22
68,Kruisfontein,-34.0,24.73,scattered clouds,64.98,73,32,15.28,0.0,0.0,ZA,2020-04-05 15:52:22
69,Sorland,67.67,12.69,shower rain,30.2,63,40,4.21,0.0,0.0,NO,2020-04-05 15:54:19
70,Victoria,22.29,114.16,moderate rain,64.99,88,40,10.29,0.0,0.0,HK,2020-04-05 15:53:20
71,Gat,31.61,34.76,scattered clouds,70.0,68,31,10.29,0.0,0.0,IL,2020-04-05 15:44:23
72,Mao,39.89,4.27,few clouds,64.4,42,20,6.93,0.0,0.0,ES,2020-04-05 15:49:23
73,Am Timan,11.03,20.28,broken clouds,106.66,11,74,2.82,0.0,0.0,TD,2020-04-05 15:49:23
74,Roald,62.58,6.13,overcast clouds,51.8,57,100,16.11,0.0,0.0,NO,2020-04-05 15:54:19
75,East London,-33.02,27.91,broken clouds,73.8,69,67,7.38,0.0,0.0,ZA,2020-04-05 15:52:31
76,Iqaluit,63.75,-68.51,clear sky,-0.4,70,5,1.86,0.0,0.0,CA,2020-04-05 15:52:49
77,Phultala,22.7,89.52,clear sky,80.01,56,0,7.83,0.0,0.0,BD,2020-04-05 15:49:23
78,Dikson,73.51,80.55,overcast clouds,7.77,97,88,0.89,0.0,0.0,RU,2020-04-05 15:54:20
79,Praia Da Vitoria,38.73,-27.07,light intensity drizzle rain,57.2,93,75,14.61,0.0,0.0,PT,2020-04-05 15:54:20
80,Tukrah,32.53,20.58,light rain,61.99,66,15,16.96,0.18,0.0,LY,2020-04-05 15:49:24
81,Itarema,-2.92,-39.92,light rain,84.07,80,100,10.25,1.9,0.0,BR,2020-04-05 15:54:20
82,Lieksa,63.32,30.02,scattered clouds,29.86,81,43,11.72,0.0,0.0,FI,2020-04-05 15:49:24
83,Kutum,14.2,24.67,broken clouds,96.94,6,63,11.65,0.0,0.0,SD,2020-04-05 15:54:20
84,Ilulissat,69.22,-51.1,mist,10.4,46,0,28.86,0.0,0.0,GL,2020-04-05 15:52:45
85,Chakwal,32.93,72.86,scattered clouds,62.6,77,40,8.05,0.0,0.0,PK,2020-04-05 15:49:24
86,Salekhard,66.53,66.6,overcast clouds,32.13,98,100,2.39,0.0,0.0,RU,2020-04-05 15:49:24
87,Sakakah,29.97,40.21,overcast clouds,93.2,9,100,10.29,0.0,0.0,SA,2020-04-05 15:54:09
88,Gordeyevka,52.96,31.97,clear sky,44.8,52,1,13.8,0.0,0.0,RU,2020-04-05 15:49:25
89,Moba,33.23,105.02,broken clouds,40.93,47,65,3.62,0.0,0.0,CN,2020-04-05 15:44:51
90,Calatayud,41.35,-1.64,overcast clouds,64.4,71,90,8.05,0.0,0.0,ES,2020-04-05 15:49:25
91,Longyearbyen,78.22,15.64,scattered clouds,5.0,65,40,5.82,0.0,0.0,SJ,2020-04-05 15:44:26
92,Ponta Do Sol,32.67,-17.1,few clouds,71.6,68,20,23.04,0.0,0.0,PT,2020-04-05 15:54:21
93,Usinsk,65.99,57.53,broken clouds,21.81,95,63,7.31,0.0,0.0,RU,2020-04-05 15:44:23
94,Bubaque,11.28,-15.83,clear sky,81.45,68,0,13.09,0.0,0.0,GW,2020-04-05 15:44:47
95,Ipora,-16.44,-51.12,light rain,83.07,65,28,3.96,2.22,0.0,BR,2020-04-05 15:49:26
96,Celles,50.71,3.46,clear sky,73.0,30,0,11.41,0.0,0.0,BE,2020-04-05 15:49:26
97,Ilhabela,-23.78,-45.36,clear sky,78.15,59,1,7.16,0.0,0.0,BR,2020-04-05 15:52:16
98,Slonim,53.09,25.32,clear sky,49.23,44,0,4.74,0.0,0.0,BY,2020-04-05 15:49:27
99,Kudahuvadhoo,2.67,72.89,light rain,84.15,73,100,9.15,0.48,0.0,MV,2020-04-05 15:44:24
100,Strangnas,59.38,17.03,light rain,48.99,70,91,8.05,0.12,0.0,SE,2020-04-05 15:49:27
101,Caluquembe,-13.78,14.68,moderate rain,68.52,55,20,5.37,3.43,0.0,AO,2020-04-05 15:44:54
102,Narsaq,60.92,-46.05,overcast clouds,26.6,27,100,33.33,0.0,0.0,GL,2020-04-05 15:54:22
103,Marienburg,54.04,19.03,clear sky,57.99,32,0,10.29,0.0,0.0,PL,2020-04-05 15:49:27
104,Isla Mujeres,21.23,-86.73,scattered clouds,84.2,66,40,12.75,0.0,0.0,MX,2020-04-05 15:49:27
105,Sauce,-34.65,-56.06,clear sky,77.0,47,6,11.41,0.0,0.0,UY,2020-04-05 15:49:28
106,Altay,47.87,88.12,clear sky,40.93,38,0,5.3,0.0,0.0,CN,2020-04-05 15:44:28
107,Barra,-11.09,-43.14,clear sky,85.17,50,0,3.33,0.0,0.0,BR,2020-04-05 15:44:52
108,Consett,54.85,-1.83,overcast clouds,64.99,34,100,16.11,0.0,0.0,GB,2020-04-05 15:49:28
109,Puerto Ayacucho,5.66,-67.62,few clouds,89.6,55,20,2.17,0.0,0.0,VE,2020-04-05 15:49:28
110,Qaqortoq,60.72,-46.03,overcast clouds,26.6,27,100,33.33,0.0,0.0,GL,2020-04-05 15:44:29
111,Say,13.1,2.37,overcast clouds,111.2,4,100,13.87,0.0,0.0,NE,2020-04-05 15:49:28
112,General Roca,-39.03,-67.58,clear sky,64.4,21,0,14.99,0.0,0.0,AR,2020-04-05 15:49:28
113,Cheremukhovo,60.35,59.99,overcast clouds,33.78,82,100,8.19,0.0,0.0,RU,2020-04-05 15:49:29
114,Dudinka,69.41,86.18,fog,32.0,96,40,22.37,0.0,0.0,RU,2020-04-05 15:49:29
115,Pombas,17.15,-25.02,few clouds,80.6,51,20,27.51,0.0,0.0,CV,2020-04-05 15:49:29
116,Grenville,12.12,-61.62,few clouds,86.0,70,20,17.22,0.0,0.0,GD,2020-04-05 15:49:29
117,Klaksvik,62.23,-6.59,light rain,48.2,81,90,26.4,0.0,0.0,FO,2020-04-05 15:54:24
118,Dhidhdhoo,6.88,73.1,few clouds,84.16,69,13,2.35,0.0,0.0,MV,2020-04-05 15:49:30
119,Putyatino,54.16,41.12,light snow,39.61,65,100,13.29,0.0,0.86,RU,2020-04-05 15:49:30
120,Vila Velha,-20.33,-40.29,broken clouds,80.01,69,75,8.05,0.0,0.0,BR,2020-04-05 15:49:29
121,Tonj,7.27,28.68,light rain,93.16,33,90,5.79,0.37,0.0,SS,2020-04-05 15:49:30
122,Jaru,-10.44,-62.47,broken clouds,81.39,77,83,3.0,0.0,0.0,BR,2020-04-05 15:49:30
123,Lebu,-37.62,-73.65,few clouds,60.4,55,15,5.75,0.0,0.0,CL,2020-04-05 15:52:10
124,Hamilton,39.18,-84.53,overcast clouds,54.0,87,90,5.82,0.0,0.0,US,2020-04-05 15:50:11
125,Vestmanna,62.16,-7.17,light rain,48.2,81,90,26.4,0.0,0.0,FO,2020-04-05 15:49:31
126,Sao Sebastiao,-23.76,-45.41,clear sky,79.03,58,1,7.2,0.0,0.0,BR,2020-04-05 15:47:25
127,Abha,18.22,42.51,thunderstorm with rain,68.0,63,75,9.17,0.0,0.0,SA,2020-04-05 15:49:31
128,Catanduva,-21.14,-48.97,clear sky,81.61,49,0,1.63,0.0,0.0,BR,2020-04-05 15:49:31
129,Jamame,0.07,42.75,broken clouds,85.53,64,67,12.55,0.0,0.0,SO,2020-04-05 15:49:31
130,Khorramshahr,30.44,48.17,scattered clouds,86.0,13,44,18.34,0.0,0.0,IR,2020-04-05 15:49:32
131,Codrington,-38.27,141.97,light rain,54.63,74,61,10.54,0.22,0.0,AU,2020-04-05 15:54:25
132,Kambove,-10.88,26.6,scattered clouds,73.74,54,26,2.68,0.0,0.0,CD,2020-04-05 15:49:32
133,Mahajanga,-15.72,46.32,few clouds,82.4,74,20,3.36,0.0,0.0,MG,2020-04-05 15:49:33
134,Olafsvik,64.89,-23.71,light snow,27.82,96,100,60.46,0.0,1.37,IS,2020-04-05 15:54:26
135,Letlhakane,-21.42,25.58,scattered clouds,84.74,21,38,8.21,0.0,0.0,BW,2020-04-05 15:49:33
136,Saint George,37.1,-113.58,clear sky,57.2,44,1,10.29,0.0,0.0,US,2020-04-05 15:52:23
137,Kanker,20.27,81.49,scattered clouds,85.46,28,41,2.64,0.0,0.0,IN,2020-04-05 15:49:33
138,Povenets,62.85,34.83,light snow,31.69,91,59,5.77,0.0,0.24,RU,2020-04-05 15:49:33
139,Wladyslawowo,54.79,18.4,clear sky,55.4,32,0,10.29,0.0,0.0,PL,2020-04-05 15:49:33
140,Cap Malheureux,-19.98,57.61,scattered clouds,78.8,78,40,6.93,0.0,0.0,MU,2020-04-05 15:54:26
141,Doka,13.52,35.77,broken clouds,103.93,11,72,3.18,0.0,0.0,SD,2020-04-05 15:49:34
142,Bougouni,11.42,-7.48,clear sky,114.75,11,2,1.66,0.0,0.0,ML,2020-04-05 15:49:34
143,Pisco,-13.7,-76.22,few clouds,75.0,30,20,8.05,0.0,0.0,PE,2020-04-05 15:52:48
144,Zhovtneve,50.66,24.25,clear sky,50.59,42,0,7.56,0.0,0.0,UA,2020-04-05 15:49:34
145,Togur,58.36,82.83,broken clouds,33.69,87,81,11.01,0.0,0.0,RU,2020-04-05 15:49:35
146,Bernau,52.68,13.59,clear sky,63.0,29,0,16.11,0.0,0.0,DE,2020-04-05 15:49:35
147,Tasiilaq,65.61,-37.64,few clouds,14.0,47,20,10.29,0.0,0.0,GL,2020-04-05 15:52:51
148,Oranjemund,-28.55,16.43,clear sky,64.42,68,2,10.47,0.0,0.0,NA,2020-04-05 15:52:32
149,Gamba,-2.65,10.0,light rain,83.57,78,94,5.39,0.38,0.0,GA,2020-04-05 15:54:28
150,Laguna,38.42,-121.42,moderate rain,53.6,87,90,12.75,0.0,0.0,US,2020-04-05 15:44:37
151,Yar-Sale,66.83,70.83,overcast clouds,33.26,98,100,5.06,0.0,0.0,RU,2020-04-05 15:40:27
152,Upernavik,72.79,-56.15,clear sky,11.17,78,0,1.61,0.0,0.0,GL,2020-04-05 15:54:29
153,Cesvaine,56.97,26.32,clear sky,44.92,50,0,9.31,0.0,0.0,LV,2020-04-05 15:49:36
154,Mahebourg,-20.41,57.7,scattered clouds,78.8,78,40,6.93,0.0,0.0,MU,2020-04-05 15:52:10
155,Galle,6.04,80.22,scattered clouds,82.11,72,41,3.22,0.0,0.0,LK,2020-04-05 15:44:42
156,Cayenne,4.93,-52.33,broken clouds,87.8,66,75,16.11,0.0,0.0,GF,2020-04-05 15:44:33
157,Hualmay,-11.1,-77.61,few clouds,77.0,64,19,6.71,0.0,0.0,PE,2020-04-05 15:54:30
158,Rafaela,-31.25,-61.49,overcast clouds,82.99,39,88,5.01,0.0,0.0,AR,2020-04-05 15:45:11
159,Loveland,40.4,-105.08,clear sky,54.0,46,1,1.74,0.0,0.0,US,2020-04-05 15:49:36
160,Santa Fe,-31.63,-60.7,broken clouds,82.99,41,83,8.01,0.0,0.0,AR,2020-04-05 15:49:37
161,Soyo,-6.13,12.37,overcast clouds,80.82,81,100,3.15,0.0,0.0,AO,2020-04-05 15:54:31
162,Straumen,63.87,11.3,broken clouds,46.4,52,75,12.75,0.0,0.0,NO,2020-04-05 15:49:37
163,Merritt Island,28.54,-80.67,moderate rain,71.6,94,90,8.05,0.0,0.0,US,2020-04-05 15:46:58
164,Elesbao Veloso,-6.2,-42.14,moderate rain,87.01,68,69,2.93,5.95,0.0,BR,2020-04-05 15:49:37
165,Vardo,70.37,31.11,light snow,28.4,68,99,24.16,0.0,0.74,NO,2020-04-05 15:54:31
166,Sibate,4.48,-74.25,scattered clouds,66.2,55,40,11.41,0.0,0.0,CO,2020-04-05 15:49:38
167,Presidente Olegario,-18.42,-46.42,light rain,82.42,50,0,1.01,0.16,0.0,BR,2020-04-05 15:49:38
168,Salamiyah,35.01,37.05,overcast clouds,78.12,24,89,18.7,0.0,0.0,SY,2020-04-05 15:54:32
169,Diamantino,-14.41,-56.45,broken clouds,88.74,56,56,5.44,0.0,0.0,BR,2020-04-05 15:49:38
170,Pashiya,58.43,58.26,overcast clouds,32.99,88,100,4.63,0.0,0.0,RU,2020-04-05 15:49:38
171,Bud,39.45,-86.18,overcast clouds,48.99,93,90,4.7,0.0,0.0,US,2020-04-05 15:49:38
172,Tabas,33.6,56.92,few clouds,75.2,17,19,11.41,0.0,0.0,IR,2020-04-05 15:49:38
173,San Cristobal,7.77,-72.22,few clouds,87.8,58,20,6.93,0.0,0.0,VE,2020-04-05 15:53:28
174,Sao Francisco De Paula,-29.45,-50.58,clear sky,82.99,41,0,1.99,0.0,0.0,BR,2020-04-05 15:49:39
175,Mendi,-6.18,143.65,light rain,55.49,56,81,1.05,0.12,0.0,PG,2020-04-05 15:49:39
176,Ulagan,50.63,87.96,clear sky,32.79,51,0,2.75,0.0,0.0,RU,2020-04-05 15:49:39
177,Luderitz,-26.65,15.16,clear sky,68.0,64,2,16.11,0.0,0.0,NA,2020-04-05 15:52:08
178,Develi,38.39,35.49,broken clouds,60.8,36,75,25.28,0.0,0.0,TR,2020-04-05 15:49:39
179,Peniche,39.36,-9.38,moderate rain,64.0,88,90,14.99,0.0,0.0,PT,2020-04-05 15:44:55
180,Nanortalik,60.14,-45.24,overcast clouds,26.04,78,100,12.37,0.0,0.0,GL,2020-04-05 15:46:23
181,Soroca,48.16,28.3,clear sky,53.01,29,0,12.46,0.0,0.0,MD,2020-04-05 15:49:39
182,Benavente,42.0,-5.68,overcast clouds,59.0,87,90,14.99,0.0,0.0,ES,2020-04-05 15:49:40
183,Marsh Harbour,26.54,-77.06,broken clouds,74.3,52,73,7.58,0.0,0.0,BS,2020-04-05 15:54:33
184,Cocobeach,1.0,9.58,few clouds,89.6,70,20,9.17,0.0,0.0,GA,2020-04-05 15:49:40
185,Valparaiso,-33.04,-71.63,haze,59.0,77,0,4.7,0.0,0.0,CL,2020-04-05 15:50:11
186,Torquay,50.46,-3.51,overcast clouds,64.0,62,94,4.0,0.0,0.0,GB,2020-04-05 15:49:40
187,Umm Lajj,25.02,37.27,clear sky,87.4,35,0,5.21,0.0,0.0,SA,2020-04-05 15:44:45
188,Dunda,-8.12,34.25,light rain,75.69,54,38,2.04,0.4,0.0,TZ,2020-04-05 15:49:40
189,Halifax,44.65,-63.57,scattered clouds,44.01,59,40,4.7,0.0,0.0,CA,2020-04-05 15:47:34
190,Euclides Da Cunha,-10.51,-39.02,scattered clouds,92.5,34,34,9.22,0.0,0.0,BR,2020-04-05 15:49:41
191,Acara,-1.96,-48.2,moderate rain,85.66,83,33,4.09,3.87,0.0,BR,2020-04-05 15:49:41
192,Mogadishu,2.04,45.34,scattered clouds,84.65,68,45,14.34,0.0,0.0,SO,2020-04-05 15:45:41
193,Arvika,59.66,12.59,broken clouds,50.0,66,83,6.93,0.0,0.0,SE,2020-04-05 15:49:41
194,Castro,-24.79,-50.01,clear sky,76.77,31,0,3.98,0.0,0.0,BR,2020-04-05 15:54:34
195,Grand Gaube,-20.01,57.66,scattered clouds,78.8,78,40,6.93,0.0,0.0,MU,2020-04-05 15:49:41
196,Tessalit,20.2,1.01,clear sky,102.4,6,0,12.03,0.0,0.0,ML,2020-04-05 15:49:42
197,Goya,-29.14,-59.26,broken clouds,79.47,43,71,8.21,0.0,0.0,AR,2020-04-05 15:49:42
198,Warmbad,-28.45,18.73,broken clouds,87.73,11,52,22.35,0.0,0.0,NA,2020-04-05 15:49:42
199,Kibala,9.11,18.35,few clouds,105.8,23,20,4.7,0.0,0.0,TD,2020-04-05 15:49:42
200,Itarare,-24.11,-49.33,clear sky,79.0,64,1,4.0,0.0,0.0,BR,2020-04-05 15:49:42
201,Nieuw Nickerie,5.95,-56.98,overcast clouds,81.99,74,99,14.23,0.0,0.0,SR,2020-04-05 15:49:43
202,Tiznit,29.58,-9.5,overcast clouds,70.3,42,100,13.22,0.0,0.0,MA,2020-04-05 15:49:43
203,Sur,22.57,59.53,few clouds,89.31,28,20,3.2,0.0,0.0,OM,2020-04-05 15:54:35
204,Springbok,-29.66,17.89,scattered clouds,71.94,20,48,16.17,0.0,0.0,ZA,2020-04-05 15:49:43
205,Lasa,46.62,10.7,clear sky,71.6,46,5,6.93,0.0,0.0,IT,2020-04-05 15:51:56
206,Camacha,33.08,-16.33,scattered clouds,71.6,73,40,8.05,0.0,0.0,PT,2020-04-05 15:54:36
207,Aswan,24.09,32.91,clear sky,103.59,7,0,8.25,0.0,0.0,EG,2020-04-05 15:52:49
208,Jalu,29.03,21.55,scattered clouds,73.36,28,26,12.1,0.0,0.0,LY,2020-04-05 15:44:48
209,Mamallapuram,12.63,80.17,few clouds,86.0,79,20,9.17,0.0,0.0,IN,2020-04-05 15:49:44
210,Kikwit,-5.04,18.82,light rain,88.05,51,74,0.85,0.27,0.0,CD,2020-04-05 15:49:44
211,Dalen,52.7,6.76,clear sky,68.0,24,0,10.29,0.0,0.0,NL,2020-04-05 15:49:44
212,San Marcos,33.14,-117.17,light rain,60.8,76,90,6.93,0.0,0.0,US,2020-04-05 15:45:05
213,Carbonia,39.17,8.52,few clouds,66.2,37,20,17.22,0.0,0.0,IT,2020-04-05 15:49:44
214,Tuscaloosa,33.21,-87.57,clear sky,75.0,53,1,3.36,0.0,0.0,US,2020-04-05 15:49:45
215,Ismailia,30.6,32.27,scattered clouds,76.05,41,35,14.9,0.0,0.0,EG,2020-04-05 15:47:45
216,Tartagal,-22.52,-63.8,broken clouds,82.98,37,53,2.35,0.0,0.0,AR,2020-04-05 15:49:45
217,Khuldabad,20.05,75.18,clear sky,86.0,33,0,2.24,0.0,0.0,IN,2020-04-05 15:49:45
218,Araguacu,-12.93,-49.83,clear sky,90.57,53,2,2.55,0.0,0.0,BR,2020-04-05 15:49:46
219,Chapais,49.78,-74.85,light snow,32.0,87,90,12.75,0.0,0.0,CA,2020-04-05 15:44:45
220,Derzhavinsk,51.1,66.32,broken clouds,39.87,89,64,8.86,0.0,0.0,KZ,2020-04-05 15:49:46
221,Kamenka,51.32,42.77,overcast clouds,46.0,36,100,10.0,0.0,0.0,RU,2020-04-05 15:49:46
222,Isiolo,0.35,37.58,light rain,78.57,37,100,11.77,0.51,0.0,KE,2020-04-05 15:49:46
223,Touros,-5.2,-35.46,shower rain,87.8,70,40,17.22,0.0,0.0,BR,2020-04-05 15:39:56
224,Guaraniacu,-25.1,-52.88,scattered clouds,75.76,36,40,5.3,0.0,0.0,BR,2020-04-05 15:46:00
225,Shakawe,-18.37,21.85,broken clouds,80.87,38,81,4.76,0.0,0.0,BW,2020-04-05 15:49:47
226,Cabinda,-5.55,12.2,overcast clouds,81.81,81,100,6.08,0.0,0.0,AO,2020-04-05 15:49:47
227,Bandarbeyla,9.49,50.81,scattered clouds,82.27,63,31,11.01,0.0,0.0,SO,2020-04-05 15:52:59
228,Ostrovnoy,68.05,39.51,overcast clouds,26.01,93,99,14.47,0.0,0.0,RU,2020-04-05 15:54:38
229,Taoudenni,22.68,-3.98,clear sky,101.03,7,0,7.63,0.0,0.0,ML,2020-04-05 15:44:57
230,Bonavista,48.65,-53.11,overcast clouds,32.0,73,98,5.01,0.0,0.0,CA,2020-04-05 15:49:47
231,Iskateley,67.68,53.15,clear sky,18.39,94,2,6.35,0.0,0.0,RU,2020-04-05 15:49:48
232,Sendhwa,21.68,75.1,clear sky,88.07,11,0,1.66,0.0,0.0,IN,2020-04-05 15:49:48
233,Tabuk,17.42,121.44,light rain,74.1,80,64,3.96,0.78,0.0,PH,2020-04-05 15:44:42
234,Szczytno,53.56,20.99,clear sky,55.4,28,0,4.7,0.0,0.0,PL,2020-04-05 15:49:48
235,Kelo,9.31,15.81,overcast clouds,101.1,20,88,2.26,0.0,0.0,TD,2020-04-05 15:49:48
236,Arrecife,28.96,-13.55,few clouds,80.6,47,20,11.41,0.0,0.0,ES,2020-04-05 15:49:48
237,Saldanha,-33.01,17.94,clear sky,69.8,56,10,9.17,0.0,0.0,ZA,2020-04-05 15:52:11
238,Oksfjord,70.24,22.35,shower rain,32.0,63,40,14.99,0.0,0.0,NO,2020-04-05 15:49:48
239,Tando Adam,25.76,68.66,haze,91.4,33,21,2.24,0.0,0.0,PK,2020-04-05 15:49:49
240,Marsaxlokk,35.84,14.54,clear sky,62.6,63,0,20.8,0.0,0.0,MT,2020-04-05 15:49:49
241,Naryan-Mar,67.67,53.09,clear sky,18.63,94,1,6.53,0.0,0.0,RU,2020-04-05 15:54:40
242,Marquette,46.53,-87.63,clear sky,37.0,67,5,2.48,0.0,0.0,US,2020-04-05 15:49:49
243,Bereda,43.27,-7.54,broken clouds,62.6,82,75,12.75,0.0,0.0,ES,2020-04-05 15:49:49
244,Huarmey,-10.07,-78.15,scattered clouds,79.21,62,27,6.24,0.0,0.0,PE,2020-04-05 15:49:49
245,Buxar,25.58,83.98,clear sky,83.34,15,0,7.36,0.0,0.0,IN,2020-04-05 15:46:00
246,Megion,61.03,76.11,overcast clouds,41.0,41,90,13.42,0.0,0.0,RU,2020-04-05 15:52:12
247,Carbondale,37.73,-89.22,haze,50.0,81,90,4.54,0.0,0.0,US,2020-04-05 15:50:42
248,Tabou,4.42,-7.35,overcast clouds,88.07,65,100,6.98,0.0,0.0,CI,2020-04-05 15:53:11
249,Paamiut,61.99,-49.67,overcast clouds,31.1,83,100,6.78,0.0,0.0,GL,2020-04-05 15:52:23
250,Goderich,43.75,-81.72,overcast clouds,39.0,87,100,12.21,0.0,0.0,CA,2020-04-05 15:52:24
251,Coquimbo,-29.95,-71.34,broken clouds,66.2,72,58,8.05,0.0,0.0,CL,2020-04-05 15:52:47
252,Nantucket,41.28,-70.1,overcast clouds,48.99,66,90,5.82,0.0,0.0,US,2020-04-05 15:54:41
253,Catamarca,-28.47,-65.79,few clouds,79.0,68,21,4.0,0.0,0.0,AR,2020-04-05 15:49:51
254,Bathsheba,13.22,-59.52,scattered clouds,86.0,66,40,18.34,0.0,0.0,BB,2020-04-05 15:52:48
255,Mangrol,21.12,70.12,clear sky,80.38,62,0,12.88,0.0,0.0,IN,2020-04-05 15:49:51
256,High Wycombe,51.63,-0.75,broken clouds,70.0,30,78,17.22,0.0,0.0,GB,2020-04-05 15:49:51
257,Puerto Madryn,-42.77,-65.04,overcast clouds,67.35,25,90,26.11,0.0,0.0,AR,2020-04-05 15:49:51
258,Carahue,-38.7,-73.17,overcast clouds,53.6,71,90,6.93,0.0,0.0,CL,2020-04-05 15:49:52
259,Richards Bay,-28.78,32.04,clear sky,78.6,72,0,16.06,0.0,0.0,ZA,2020-04-05 15:52:43
260,Port-Gentil,-0.72,8.78,few clouds,89.6,66,20,10.29,0.0,0.0,GA,2020-04-05 15:52:26
261,Jacareacanga,-6.22,-57.75,scattered clouds,91.4,53,44,4.59,0.0,0.0,BR,2020-04-05 15:49:52
262,Walvis Bay,-22.96,14.51,scattered clouds,69.8,60,25,10.29,0.0,0.0,NA,2020-04-05 15:54:42
263,Visby,57.64,18.3,few clouds,53.01,57,15,8.05,0.0,0.0,SE,2020-04-05 15:49:52
264,Muisne,0.6,-80.03,few clouds,86.0,74,20,8.05,0.0,0.0,EC,2020-04-05 15:49:53
265,San Juan,-31.54,-68.54,few clouds,76.37,35,13,14.36,0.0,0.0,AR,2020-04-05 15:45:03
266,La Asuncion,11.03,-63.86,overcast clouds,84.2,74,86,21.92,0.0,0.0,VE,2020-04-05 15:49:53
267,Maragogi,-9.01,-35.22,scattered clouds,86.23,67,35,9.04,0.0,0.0,BR,2020-04-05 15:54:42
268,Inhambane,-23.86,35.38,few clouds,78.6,65,23,7.27,0.0,0.0,MZ,2020-04-05 15:49:53
269,Matthews,35.12,-80.72,clear sky,66.0,72,1,4.54,0.0,0.0,US,2020-04-05 15:49:53
270,Merdzavan,40.18,44.4,scattered clouds,60.8,51,40,1.12,0.0,0.0,AM,2020-04-05 15:49:53
271,Chingola,-12.53,27.88,broken clouds,73.22,50,82,3.65,0.0,0.0,ZM,2020-04-05 15:49:54
272,Booue,-0.09,11.94,few clouds,92.98,46,22,3.06,0.0,0.0,GA,2020-04-05 15:49:54
273,Brae,60.4,-1.35,overcast clouds,50.0,71,100,31.09,0.0,0.0,GB,2020-04-05 15:44:58
274,Aguimes,27.91,-15.45,few clouds,73.0,73,20,6.93,0.0,0.0,ES,2020-04-05 15:49:54
275,Thompson,55.74,-97.86,clear sky,6.8,84,5,3.36,0.0,0.0,CA,2020-04-05 15:52:07
276,Husavik,66.04,-17.34,light snow,26.6,86,90,49.44,0.0,0.0,IS,2020-04-05 15:44:56
277,Buriti,-22.93,-45.39,scattered clouds,77.0,53,40,3.36,0.0,0.0,BR,2020-04-05 15:49:54
278,Belmonte,-15.86,-38.88,overcast clouds,82.4,78,90,5.82,0.0,0.0,BR,2020-04-05 15:53:06
279,Dergachi,51.23,48.77,light rain,46.27,55,89,6.87,0.41,0.0,RU,2020-04-05 15:49:00
280,Visnes,59.36,5.22,overcast clouds,55.4,46,100,19.46,0.0,0.0,NO,2020-04-05 15:49:55
281,Carutapera,-1.2,-46.02,moderate rain,83.59,80,83,11.3,3.36,0.0,BR,2020-04-05 15:49:55
282,Gazanjyk,39.24,55.52,overcast clouds,55.63,70,95,14.97,0.0,0.0,TM,2020-04-05 15:49:55
283,Havre-Saint-Pierre,50.23,-63.6,overcast clouds,33.8,80,90,5.82,0.0,0.0,CA,2020-04-05 15:54:44
284,Poquoson,37.12,-76.35,scattered clouds,63.0,51,40,4.7,0.0,0.0,US,2020-04-05 15:49:55
285,Harsin,34.27,47.59,clear sky,60.8,23,0,4.7,0.0,0.0,IR,2020-04-05 15:49:56
286,Moron,-34.65,-58.62,broken clouds,79.0,56,57,5.82,0.0,0.0,AR,2020-04-05 15:45:43
287,Ugoofaaru,5.67,73.0,clear sky,85.12,63,6,3.67,0.0,0.0,MV,2020-04-05 15:54:44
288,Aksu,41.12,80.26,few clouds,60.64,20,15,3.49,0.0,0.0,CN,2020-04-05 15:49:56
289,America Dourada,-11.46,-41.44,few clouds,91.2,33,11,8.5,0.0,0.0,BR,2020-04-05 15:49:56
290,Kuytun,54.34,101.5,clear sky,28.76,82,0,7.83,0.0,0.0,RU,2020-04-05 15:49:57
291,Sarkand,45.41,79.92,overcast clouds,56.14,33,98,2.89,0.0,0.0,KZ,2020-04-05 15:49:57
292,Saurimo,-9.66,20.39,light rain,76.14,57,92,3.4,1.44,0.0,AO,2020-04-05 15:49:57
293,Yenagoa,4.92,6.26,broken clouds,94.51,46,79,2.71,0.0,0.0,NG,2020-04-05 15:49:57
294,Sambava,-14.27,50.17,clear sky,78.58,81,6,8.37,0.0,0.0,MG,2020-04-05 15:54:45
295,Aktas,49.78,72.96,clear sky,42.8,81,7,6.71,0.0,0.0,KZ,2020-04-05 15:49:57
296,Stara Zagora,42.43,25.64,overcast clouds,55.4,47,90,20.8,0.0,0.0,BG,2020-04-05 15:49:57
297,Saint-Augustin,51.23,-58.65,light snow,28.58,96,100,2.64,0.0,0.17,CA,2020-04-05 15:44:56
298,Manakara,-22.13,48.02,broken clouds,73.96,78,53,5.06,0.0,0.0,MG,2020-04-05 15:45:19
299,Timmins,48.47,-81.33,broken clouds,33.8,59,75,11.41,0.0,0.0,CA,2020-04-05 15:49:58
300,Juba,4.85,31.58,overcast clouds,94.32,30,100,2.64,0.0,0.0,SS,2020-04-05 15:49:58
301,Loiza,18.43,-65.88,scattered clouds,87.01,66,40,4.7,0.0,0.0,PR,2020-04-05 15:49:58
302,Bonthe,7.53,-12.51,light rain,87.19,69,65,8.63,1.37,0.0,SL,2020-04-05 15:54:46
303,Bahia Blanca,-38.72,-62.27,broken clouds,71.19,43,71,8.14,0.0,0.0,AR,2020-04-05 15:54:46
304,Le Port,-20.94,55.29,broken clouds,78.8,74,75,13.87,0.0,0.0,RE,2020-04-05 15:49:58
305,Oistins,13.07,-59.53,scattered clouds,86.0,66,40,18.34,0.0,0.0,BB,2020-04-05 15:54:46
306,Sisimiut,66.94,-53.67,clear sky,20.91,83,0,5.32,0.0,0.0,GL,2020-04-05 15:45:03
307,Atar,20.52,-13.05,clear sky,96.8,13,0,8.25,0.0,0.0,MR,2020-04-05 15:54:47
308,Kuhdasht,33.53,47.61,clear sky,59.81,25,4,3.6,0.0,0.0,IR,2020-04-05 15:49:59
309,Dakar,14.69,-17.44,clear sky,86.0,73,0,18.34,0.0,0.0,SN,2020-04-05 15:49:59
310,Oussouye,12.48,-16.55,clear sky,104.0,58,0,6.93,0.0,0.0,SN,2020-04-05 15:44:51
311,Uberlingen,47.77,9.17,clear sky,66.99,42,0,6.93,0.0,0.0,DE,2020-04-05 15:49:59
312,Morondava,-20.28,44.28,light rain,81.12,74,0,6.73,0.66,0.0,MG,2020-04-05 15:54:47
313,Kidal,18.44,1.41,clear sky,105.28,6,0,14.36,0.0,0.0,ML,2020-04-05 15:50:00
314,Sabzevar,36.21,57.68,broken clouds,51.15,50,67,5.57,0.0,0.0,IR,2020-04-05 15:50:00
315,Birao,10.28,22.79,overcast clouds,105.39,6,99,8.99,0.0,0.0,CF,2020-04-05 15:54:47
316,Polyarnyy,69.2,33.45,scattered clouds,30.2,58,40,6.71,0.0,0.0,RU,2020-04-05 15:50:00
317,Ilo,-17.64,-71.34,clear sky,75.04,67,10,5.06,0.0,0.0,PE,2020-04-05 15:44:51
318,Bandar-E Anzali,37.47,49.46,clear sky,56.17,80,4,7.72,0.0,0.0,IR,2020-04-05 15:54:48
319,Dzaoudzi,-12.79,45.27,overcast clouds,82.4,78,88,5.82,0.0,0.0,YT,2020-04-05 15:50:01
320,Markala,13.7,-6.07,clear sky,107.85,6,0,7.05,0.0,0.0,ML,2020-04-05 15:50:01
321,Quatre Cocos,-20.21,57.76,scattered clouds,78.8,78,40,6.93,0.0,0.0,MU,2020-04-05 15:54:48
322,Ploemeur,47.73,-3.43,broken clouds,61.0,72,66,16.11,0.0,0.0,FR,2020-04-05 15:50:02
323,Manono,-7.3,27.42,light rain,83.12,68,61,2.08,1.96,0.0,CD,2020-04-05 15:50:02
324,Nuuk,64.18,-51.72,few clouds,35.6,34,20,8.05,0.0,0.0,GL,2020-04-05 15:54:49
325,Porto Velho,-8.76,-63.9,scattered clouds,87.8,62,40,6.93,0.0,0.0,BR,2020-04-05 15:54:49
326,Tsivilsk,55.86,47.47,few clouds,41.0,27,20,4.47,0.0,0.0,RU,2020-04-05 15:50:03
327,Soverato,38.69,16.55,broken clouds,59.0,72,75,11.41,0.0,0.0,IT,2020-04-05 15:50:03
328,Bogovarovo,58.98,47.02,light snow,33.01,85,97,2.95,0.0,0.48,RU,2020-04-05 15:50:03
329,Sept-Iles,50.2,-66.38,mist,35.01,91,90,10.29,0.0,0.0,CA,2020-04-05 15:51:28
330,Saint-Louis,16.33,-15.0,clear sky,104.0,15,0,2.24,0.0,0.0,SN,2020-04-05 15:50:03
331,Lubango,-14.92,13.49,moderate rain,69.01,48,35,7.18,3.71,0.0,AO,2020-04-05 15:50:03
332,Conceicao Do Araguaia,-8.26,-49.26,light rain,90.63,60,61,2.84,0.87,0.0,BR,2020-04-05 15:50:03
333,Zarumilla,-3.5,-80.27,scattered clouds,89.6,33,40,4.7,0.0,0.0,PE,2020-04-05 15:50:04
334,Lerwick,60.15,-1.15,overcast clouds,50.0,71,100,26.4,0.0,0.0,GB,2020-04-05 15:54:50
335,Caravelas,-17.71,-39.25,broken clouds,81.12,73,75,15.26,0.0,0.0,BR,2020-04-05 15:54:50
336,Aasiaat,68.71,-52.87,clear sky,13.66,83,0,27.49,0.0,0.0,GL,2020-04-05 15:50:04
337,Lucea,18.45,-78.17,few clouds,86.0,66,20,14.99,0.0,0.0,JM,2020-04-05 15:50:04
338,Cururupu,-1.83,-44.87,moderate rain,84.02,81,100,8.1,4.35,0.0,BR,2020-04-05 15:50:04
339,Manga,11.66,-1.07,broken clouds,108.12,13,64,5.08,0.0,0.0,BF,2020-04-05 15:50:04
340,Karaman,37.08,33.25,clear sky,57.43,31,0,26.35,0.0,0.0,TR,2020-04-05 15:50:04
341,El Paujil,1.57,-75.33,broken clouds,85.86,59,52,2.62,0.0,0.0,CO,2020-04-05 15:50:05
342,Paita,-5.09,-81.11,overcast clouds,78.67,63,96,7.47,0.0,0.0,PE,2020-04-05 15:50:05
343,Ayame,5.61,-3.16,scattered clouds,97.77,39,39,6.44,0.0,0.0,CI,2020-04-05 15:50:05
344,Campamento,14.55,-86.65,scattered clouds,84.24,37,44,2.44,0.0,0.0,HN,2020-04-05 15:50:05
345,Yacuiba,-22.04,-63.68,scattered clouds,80.78,39,45,4.32,0.0,0.0,BO,2020-04-05 15:50:05
346,Anupgarh,29.19,73.21,few clouds,87.19,22,11,9.42,0.0,0.0,IN,2020-04-05 15:50:06
347,Debre Sina,9.85,39.77,scattered clouds,66.6,25,34,9.93,0.0,0.0,ET,2020-04-05 15:50:06
348,Myshkin,57.79,38.45,light snow,35.29,73,83,9.22,0.0,0.35,RU,2020-04-05 15:50:06
349,Mount Pleasant,32.79,-79.86,clear sky,73.0,64,1,11.3,0.0,0.0,US,2020-04-05 15:46:34
350,Urengoy,65.97,78.37,snow,32.31,97,100,14.74,0.0,3.98,RU,2020-04-05 15:44:52
351,Tsabong,-26.02,22.4,clear sky,82.09,20,0,2.75,0.0,0.0,BW,2020-04-05 15:50:06
352,Mattru,7.62,-11.83,light rain,92.41,54,86,3.02,1.15,0.0,SL,2020-04-05 15:50:06
353,Mutoko,-17.4,32.23,broken clouds,74.35,39,80,3.53,0.0,0.0,ZW,2020-04-05 15:50:07
354,Qasigiannguit,68.82,-51.19,mist,10.4,46,0,28.86,0.0,0.0,GL,2020-04-05 15:50:07
355,Monrovia,6.3,-10.8,scattered clouds,93.2,67,40,8.05,0.0,0.0,LR,2020-04-05 15:50:07
356,Xuddur,4.12,43.89,overcast clouds,89.24,30,99,11.45,0.0,0.0,SO,2020-04-05 15:50:07
357,Rio Grande,-32.03,-52.1,few clouds,80.6,51,20,8.05,0.0,0.0,BR,2020-04-05 15:50:48
358,Luwingu,-10.26,29.93,scattered clouds,74.48,48,39,4.21,0.0,0.0,ZM,2020-04-05 15:50:08
359,Santiago De Cao,-7.96,-79.24,haze,69.8,83,20,10.29,0.0,0.0,PE,2020-04-05 15:50:08
360,Ampanihy,-24.7,44.75,overcast clouds,79.99,47,89,5.75,0.0,0.0,MG,2020-04-05 15:50:08
361,Chernyshkovskiy,48.42,42.23,broken clouds,49.51,45,61,11.23,0.0,0.0,RU,2020-04-05 15:50:08
362,Villanueva De Cordoba,38.32,-4.63,scattered clouds,71.6,46,33,9.17,0.0,0.0,ES,2020-04-05 15:50:09
363,Paso De Los Toros,-32.82,-56.52,scattered clouds,76.5,44,27,8.43,0.0,0.0,UY,2020-04-05 15:50:09
364,Cockburn Town,21.46,-71.14,clear sky,75.65,58,0,6.93,0.0,0.0,TC,2020-04-05 15:54:54
365,Siguiri,11.67,-9.5,clear sky,109.71,11,0,3.15,0.0,0.0,GN,2020-04-05 15:50:09
366,Paragominas,-2.97,-47.48,light rain,88.74,63,51,4.9,0.67,0.0,BR,2020-04-05 15:50:09
367,The Valley,18.22,-63.06,few clouds,87.8,55,20,3.36,0.0,0.0,AI,2020-04-05 15:50:01
368,Lokachi,50.74,24.65,clear sky,50.34,42,0,7.14,0.0,0.0,UA,2020-04-05 15:50:09
369,Renkum,51.98,5.73,clear sky,70.0,24,0,17.22,0.0,0.0,NL,2020-04-05 15:50:09
370,Mkushi,-13.62,29.39,scattered clouds,74.93,44,25,4.29,0.0,0.0,ZM,2020-04-05 15:50:10
371,Raudeberg,61.99,5.14,few clouds,51.8,53,20,19.46,0.0,0.0,NO,2020-04-05 15:52:50
372,Barras,-4.24,-42.29,light rain,89.44,62,30,5.61,0.42,0.0,BR,2020-04-05 15:50:10
373,Seminole,28.71,-81.21,light rain,71.01,82,75,4.21,0.0,0.0,US,2020-04-05 15:50:10
374,Misratah,32.38,15.09,overcast clouds,61.02,62,85,18.59,0.0,0.0,LY,2020-04-05 15:50:10
375,Necochea,-38.55,-58.74,overcast clouds,68.86,63,97,6.38,0.0,0.0,AR,2020-04-05 15:54:55
376,Clyde River,70.47,-68.59,broken clouds,10.4,72,75,24.16,0.0,0.0,CA,2020-04-05 15:52:43
377,Nayudupeta,13.9,79.9,clear sky,81.07,81,0,7.9,0.0,0.0,IN,2020-04-05 15:50:11
378,Puerto Colombia,10.99,-74.95,scattered clouds,86.0,74,40,11.41,0.0,0.0,CO,2020-04-05 15:50:11
379,Houma,29.6,-90.72,scattered clouds,75.2,68,40,10.29,0.0,0.0,US,2020-04-05 15:50:11
380,Eirunepe,-6.66,-69.87,overcast clouds,89.35,53,100,2.73,0.0,0.0,BR,2020-04-05 15:50:11
381,Manaure,11.78,-72.44,overcast clouds,82.4,78,90,11.41,0.0,0.0,CO,2020-04-05 15:50:11
382,Rochester,43.15,-77.62,overcast clouds,53.01,81,90,11.41,0.0,0.0,US,2020-04-05 15:50:12
383,Mitu,1.2,-70.17,light rain,78.08,85,98,3.38,0.97,0.0,CO,2020-04-05 15:47:42
384,Sao Luiz Gonzaga,-28.41,-54.96,clear sky,79.74,36,0,6.11,0.0,0.0,BR,2020-04-05 15:50:12
385,Azangaro,-14.92,-70.22,scattered clouds,55.4,54,40,3.36,0.0,0.0,PE,2020-04-05 15:50:12
386,Vallenar,-28.57,-70.76,clear sky,77.86,31,5,5.82,0.0,0.0,CL,2020-04-05 15:54:56
387,Kayerkan,69.35,87.76,fog,32.0,92,40,22.37,0.0,0.0,RU,2020-04-05 15:54:57
388,Jibuti,11.5,42.5,few clouds,84.2,70,20,8.05,0.0,0.0,DJ,2020-04-05 15:50:12
389,Malmo,55.61,13.0,scattered clouds,55.4,50,35,13.87,0.0,0.0,SE,2020-04-05 15:46:35
390,Karasjok,69.47,25.51,shower rain,28.4,58,75,28.86,0.0,0.0,NO,2020-04-05 15:50:13
391,Tanout,14.97,8.89,overcast clouds,106.25,6,99,9.46,0.0,0.0,NE,2020-04-05 15:50:13
392,Liwale,-9.77,37.93,light rain,77.9,72,45,3.83,0.74,0.0,TZ,2020-04-05 15:50:13
393,Polonnaruwa,7.93,81.0,light rain,79.32,80,1,1.14,0.7,0.0,LK,2020-04-05 15:50:13
394,Kharela,25.55,79.82,clear sky,88.23,13,0,4.97,0.0,0.0,IN,2020-04-05 15:50:13
395,Soro,21.29,86.69,clear sky,82.9,58,0,6.8,0.0,0.0,IN,2020-04-05 15:50:13
396,Malpe,13.35,74.72,few clouds,86.0,66,20,4.7,0.0,0.0,IN,2020-04-05 15:50:14
397,Abu Kamal,34.45,40.92,overcast clouds,74.55,25,100,14.76,0.0,0.0,SY,2020-04-05 15:50:14
398,Chaman,30.92,66.45,clear sky,67.89,21,0,2.95,0.0,0.0,PK,2020-04-05 15:50:14
399,Ribnitz-Damgarten,54.25,12.47,clear sky,60.8,29,9,13.87,0.0,0.0,DE,2020-04-05 15:50:14
400,Loandjili,-4.76,11.86,scattered clouds,87.8,74,40,10.29,0.0,0.0,CG,2020-04-05 15:54:58
401,Cap-Aux-Meules,47.38,-61.86,broken clouds,35.6,64,75,3.36,0.0,0.0,CA,2020-04-05 15:50:14
402,Faya,18.39,42.45,thunderstorm with rain,68.0,63,75,9.17,0.0,0.0,SA,2020-04-05 15:54:58
403,Vyshestebliyevskaya,45.2,37.02,few clouds,53.6,27,20,20.13,0.0,0.0,RU,2020-04-05 15:50:14
404,Abu Samrah,35.3,37.18,broken clouds,75.87,26,73,19.46,0.0,0.0,SY,2020-04-05 15:54:59
405,Ambilobe,-13.2,49.05,light rain,77.23,83,5,1.3,1.55,0.0,MG,2020-04-05 15:50:15
406,Tricase,39.93,18.36,broken clouds,61.0,62,75,10.29,0.0,0.0,IT,2020-04-05 15:50:15
407,Halol,22.5,73.47,clear sky,93.2,28,0,6.93,0.0,0.0,IN,2020-04-05 15:50:16
408,Buraydah,26.33,43.98,clear sky,91.4,31,0,11.41,0.0,0.0,SA,2020-04-05 15:54:59
409,Sukhobezvodnoye,57.05,44.89,scattered clouds,38.25,66,49,5.91,0.0,0.0,RU,2020-04-05 15:50:16
410,Gravdal,68.12,13.5,shower rain,30.2,63,40,8.3,0.0,0.0,NO,2020-04-05 15:50:16
411,Carora,10.18,-70.08,overcast clouds,90.28,40,95,6.17,0.0,0.0,VE,2020-04-05 15:50:16
412,Ballina,-28.87,153.57,clear sky,60.01,93,2,5.66,0.0,0.0,AU,2020-04-05 15:54:59
413,Randolph,35.7,-79.82,scattered clouds,64.99,62,40,5.12,0.0,0.0,US,2020-04-05 15:50:17
414,Kamyshevatskaya,46.41,37.96,clear sky,52.92,42,0,11.41,0.0,0.0,RU,2020-04-05 15:50:17
415,Naustdal,61.51,5.72,few clouds,51.8,53,20,19.46,0.0,0.0,NO,2020-04-05 15:50:17
416,Severnyy,50.68,36.55,scattered clouds,46.4,26,34,22.37,0.0,0.0,RU,2020-04-05 15:53:07
417,Kamariotissa,40.48,25.47,light rain,51.8,75,75,32.21,0.0,0.0,GR,2020-04-05 15:50:18
418,Lohja,60.25,24.07,clear sky,44.6,26,0,13.87,0.0,0.0,FI,2020-04-05 15:50:18
419,Talnakh,69.49,88.4,fog,32.0,92,40,22.37,0.0,0.0,RU,2020-04-05 15:55:00
420,Bezhanitsy,56.98,29.89,broken clouds,41.81,56,61,10.92,0.0,0.0,RU,2020-04-05 15:50:18
421,Rio Bananal,-19.27,-40.33,broken clouds,81.34,64,84,5.28,0.0,0.0,BR,2020-04-05 15:50:18
422,San Matias,-16.37,-58.4,light rain,86.11,69,99,6.08,0.92,0.0,BO,2020-04-05 15:50:18
423,Catalina,32.51,-110.92,clear sky,69.01,20,1,14.99,0.0,0.0,US,2020-04-05 15:50:18
424,Vestmannaeyjar,63.44,-20.27,light rain,41.0,80,90,39.15,0.0,0.0,IS,2020-04-05 15:55:01
425,Miquelon,47.1,-56.38,broken clouds,37.4,64,75,11.41,0.0,0.0,PM,2020-04-05 15:50:19
426,Sabha,27.04,14.43,clear sky,75.72,18,0,10.87,0.0,0.0,LY,2020-04-05 15:50:19
427,Ilinskiy,55.62,38.12,scattered clouds,39.0,47,40,15.66,0.0,0.0,RU,2020-04-05 15:50:19
428,Chalatenango,14.03,-88.93,haze,87.8,78,40,2.24,0.0,0.0,SV,2020-04-05 15:50:19
429,Shakiso,5.75,38.92,light rain,69.21,42,39,5.01,0.2,0.0,ET,2020-04-05 15:50:19
430,Kipushi,-11.77,27.23,scattered clouds,73.89,54,47,3.47,0.0,0.0,CD,2020-04-05 15:50:19
431,Thurso,58.59,-3.53,overcast clouds,50.0,71,100,17.22,0.0,0.0,GB,2020-04-05 15:50:19
432,Ndioum,16.51,-14.65,clear sky,104.0,15,0,2.24,0.0,0.0,SN,2020-04-05 15:50:20
433,Knysna,-34.04,23.05,broken clouds,66.2,72,75,6.93,0.0,0.0,ZA,2020-04-05 15:50:20
434,Skibbereen,51.55,-9.27,light rain,50.0,100,90,26.4,0.0,0.0,IE,2020-04-05 15:55:02
435,Bilma,18.69,12.92,clear sky,107.73,5,0,9.35,0.0,0.0,NE,2020-04-05 15:50:20
436,Awbari,26.59,12.78,clear sky,78.85,18,0,12.97,0.0,0.0,LY,2020-04-05 15:50:20
437,Coihaique,-45.58,-72.07,broken clouds,46.4,70,75,5.82,0.0,0.0,CL,2020-04-05 15:55:02
438,Asfi,32.3,-9.24,scattered clouds,69.58,67,50,13.42,0.0,0.0,MA,2020-04-05 15:50:21
439,Souillac,-20.52,57.52,scattered clouds,78.8,78,40,6.93,0.0,0.0,MU,2020-04-05 15:52:27
440,Ubinskoye,55.31,79.68,overcast clouds,32.97,90,100,14.7,0.0,0.0,RU,2020-04-05 15:50:21
441,Kumba,4.64,9.45,light rain,94.14,42,32,1.59,0.68,0.0,CM,2020-04-05 15:50:21
442,Garango,11.8,-0.55,broken clouds,106.93,14,78,5.08,0.0,0.0,BF,2020-04-05 15:50:21
443,Mehamn,71.04,27.85,scattered clouds,30.2,63,40,17.22,0.0,0.0,NO,2020-04-05 15:52:53
444,Rio Gallegos,-51.62,-69.22,few clouds,46.4,57,20,27.51,0.0,0.0,AR,2020-04-05 15:55:03
445,Leh,34.17,77.58,overcast clouds,21.97,23,100,4.14,0.0,0.0,IN,2020-04-05 15:50:21
446,Wajir,1.75,40.06,broken clouds,89.6,40,75,7.25,0.0,0.0,KE,2020-04-05 15:50:22
447,Manama,26.22,50.58,scattered clouds,82.4,47,41,12.75,0.0,0.0,BH,2020-04-05 15:50:22
448,Chopinzinho,-25.86,-52.52,few clouds,77.81,34,16,6.55,0.0,0.0,BR,2020-04-05 15:50:22
449,Rorvik,64.86,11.24,broken clouds,35.6,69,75,11.41,0.0,0.0,NO,2020-04-05 15:52:47
450,San-Pedro,4.75,-6.64,overcast clouds,90.23,59,100,6.69,0.0,0.0,CI,2020-04-05 15:50:22
451,Vastse-Kuuste,58.17,26.93,clear sky,48.2,24,0,13.87,0.0,0.0,EE,2020-04-05 15:50:23
452,El Limon,10.31,-67.63,broken clouds,80.91,61,79,5.26,0.0,0.0,VE,2020-04-05 15:50:23
453,Varhaug,58.61,5.65,overcast clouds,55.4,43,99,21.92,0.0,0.0,NO,2020-04-05 15:50:23
454,Salalah,17.02,54.09,clear sky,82.4,74,0,8.05,0.0,0.0,OM,2020-04-05 15:55:04
455,Dutse,11.76,9.34,broken clouds,106.84,10,62,7.78,0.0,0.0,NG,2020-04-05 15:47:00
456,Valdivia,-39.81,-73.25,scattered clouds,55.4,87,40,2.24,0.0,0.0,CL,2020-04-05 15:55:04
457,Shamkhal,43.06,47.34,broken clouds,46.4,93,76,4.47,0.0,0.0,RU,2020-04-05 15:50:23
458,Puerto Quijarro,-17.78,-57.77,light rain,90.05,57,73,6.73,0.53,0.0,BO,2020-04-05 15:50:24
459,Gazli,40.13,63.45,few clouds,70.07,38,24,12.01,0.0,0.0,UZ,2020-04-05 15:50:24
460,Itupiranga,-5.13,-49.33,scattered clouds,91.4,70,40,5.82,0.0,0.0,BR,2020-04-05 15:50:24
461,Irtyshskiy,58.33,68.13,light rain,38.35,97,100,4.74,0.42,0.0,RU,2020-04-05 15:50:24
462,Betafo,-19.83,46.85,light rain,64.17,52,80,3.06,1.63,0.0,MG,2020-04-05 15:50:25
463,Zamosc,50.72,23.25,clear sky,55.4,26,0,9.17,0.0,0.0,PL,2020-04-05 15:50:25
464,Ornskoldsvik,63.29,18.72,broken clouds,37.4,84,76,10.29,0.0,0.0,SE,2020-04-05 15:55:05
465,Botad,22.17,71.67,clear sky,92.41,16,9,8.66,0.0,0.0,IN,2020-04-05 15:50:25
466,Mahon,39.89,4.27,few clouds,64.4,42,20,6.93,0.0,0.0,ES,2020-04-05 15:49:23
467,Groningen,53.25,6.75,clear sky,66.99,29,0,13.87,0.0,0.0,NL,2020-04-05 15:50:26
468,La Palma,33.85,-118.05,light rain,60.01,87,90,5.82,0.0,0.0,US,2020-04-05 15:50:00
469,Stromness,58.97,-3.3,overcast clouds,50.0,71,100,32.21,0.0,0.0,GB,2020-04-05 15:50:26
470,Kiruna,67.86,20.23,clear sky,24.8,41,0,8.05,0.0,0.0,SE,2020-04-05 15:50:26
471,Carballo,43.21,-8.69,broken clouds,63.0,82,75,12.75,0.0,0.0,ES,2020-04-05 15:50:26
472,Camopi,3.17,-52.32,light rain,86.38,62,100,5.46,0.11,0.0,GF,2020-04-05 15:50:26
473,Belyy Yar,53.6,91.39,smoke,33.8,50,0,2.24,0.0,0.0,RU,2020-04-05 15:50:26
474,Salinopolis,-0.61,-47.36,moderate rain,83.34,79,100,11.86,3.21,0.0,BR,2020-04-05 15:50:26
475,Carnarvon,-24.87,113.63,scattered clouds,77.0,73,40,11.41,0.0,0.0,AU,2020-04-05 15:52:48
476,Talara,-4.58,-81.27,overcast clouds,77.31,71,99,8.99,0.0,0.0,PE,2020-04-05 15:47:03
477,Khalkhal,37.62,48.53,clear sky,46.69,34,4,3.83,0.0,0.0,IR,2020-04-05 15:50:27
478,Viedma,-40.81,-63.0,scattered clouds,67.91,33,41,17.11,0.0,0.0,AR,2020-04-05 15:55:06
479,Sosnogorsk,63.6,53.88,light snow,27.61,94,100,5.88,0.0,0.26,RU,2020-04-05 15:50:27
480,Barcelos,41.54,-8.62,broken clouds,60.8,93,75,13.87,0.0,0.0,PT,2020-04-05 15:50:27
481,Adeje,28.12,-16.73,few clouds,73.4,64,20,5.82,0.0,0.0,ES,2020-04-05 15:50:27
482,Ambanja,-13.68,48.45,scattered clouds,82.4,78,40,4.7,0.0,0.0,MG,2020-04-05 15:50:28
483,Utinga,-5.82,-35.4,shower rain,87.8,70,40,17.22,0.0,0.0,BR,2020-04-05 15:50:28
484,Bukama,-9.2,25.85,clear sky,83.93,59,0,1.05,0.0,0.0,CD,2020-04-05 15:55:07
485,Sokode,8.98,1.13,broken clouds,100.74,24,75,4.56,0.0,0.0,TG,2020-04-05 15:50:28
486,Horta,38.53,-28.63,broken clouds,62.6,72,75,5.82,0.0,0.0,PT,2020-04-05 15:49:11
487,Dogondoutchi,13.64,4.03,overcast clouds,108.82,6,100,8.39,0.0,0.0,NE,2020-04-05 15:50:28
488,Chake Chake,-5.25,39.77,broken clouds,85.5,69,76,10.92,0.0,0.0,TZ,2020-04-05 15:50:28
489,San Ignacio,17.16,-89.07,overcast clouds,86.0,74,94,6.93,0.0,0.0,BZ,2020-04-05 15:50:28
490,Taltal,-25.4,-70.48,scattered clouds,71.15,57,29,4.68,0.0,0.0,CL,2020-04-05 15:55:07
491,Kyshtovka,56.55,76.63,overcast clouds,31.64,95,92,12.73,0.0,0.0,RU,2020-04-05 15:50:29
492,Marfino,55.7,37.38,light shower snow,39.0,55,75,15.66,0.0,0.0,RU,2020-04-05 15:50:29
493,San Andres,12.58,-81.7,few clouds,84.2,66,20,8.05,0.0,0.0,CO,2020-04-05 15:50:29
494,Amapa,1.0,-52.0,light rain,84.88,66,63,6.71,0.69,0.0,BR,2020-04-05 15:50:29
495,Nioro,13.35,-15.75,clear sky,106.05,10,0,9.08,0.0,0.0,GM,2020-04-05 15:50:29
496,Bilopillya,51.15,34.31,clear sky,44.58,51,0,16.8,0.0,0.0,UA,2020-04-05 15:50:30
497,Atasu,48.68,71.64,few clouds,46.54,63,11,8.93,0.0,0.0,KZ,2020-04-05 15:50:30
498,Boddam,57.47,-1.78,overcast clouds,51.01,70,100,17.22,0.0,0.0,GB,2020-04-05 15:50:30
499,Abu Dhabi,24.47,54.37,clear sky,84.2,32,0,6.93,0.0,0.0,AE,2020-04-05 15:50:36
500,Monte Alegre,-2.01,-54.07,overcast clouds,84.6,68,100,6.53,0.0,0.0,BR,2020-04-05 15:50:30
501,El Tigre,8.89,-64.25,broken clouds,85.75,51,59,13.35,0.0,0.0,VE,2020-04-05 15:50:30
502,Havoysund,71.0,24.66,light snow,30.2,50,84,14.99,0.0,0.42,NO,2020-04-05 15:55:09
503,Jumla,29.27,82.18,scattered clouds,44.69,22,41,1.12,0.0,0.0,NP,2020-04-05 15:50:31
504,Srikakulam,18.3,83.9,scattered clouds,82.89,67,29,8.97,0.0,0.0,IN,2020-04-05 15:50:31
505,Liverpool,53.41,-2.98,overcast clouds,68.0,42,100,21.92,0.0,0.0,GB,2020-04-05 15:50:31
506,Geraldton,-28.77,114.6,few clouds,66.2,82,22,5.82,0.0,0.0,AU,2020-04-05 15:55:02
507,Miram Shah,33.01,70.07,light rain,61.86,48,13,2.28,1.57,0.0,PK,2020-04-05 15:50:32
508,Nagapattinam,10.77,79.83,broken clouds,83.68,79,75,12.35,0.0,0.0,IN,2020-04-05 15:50:32
509,Gurupi,-11.73,-49.07,clear sky,89.2,55,0,3.78,0.0,0.0,BR,2020-04-05 15:46:30
510,Martyush,56.4,61.88,light rain,38.75,83,76,7.87,0.28,0.0,RU,2020-04-05 15:50:32
511,Los Llanos De Aridane,28.66,-17.92,few clouds,73.4,73,20,5.82,0.0,0.0,ES,2020-04-05 15:55:09
512,Stornoway,58.21,-6.39,overcast clouds,53.01,71,100,16.11,0.0,0.0,GB,2020-04-05 15:50:32
513,Abay,49.63,72.85,clear sky,42.8,81,6,6.71,0.0,0.0,KZ,2020-04-05 15:49:28
514,Llanes,43.42,-4.75,broken clouds,73.0,54,63,3.18,0.0,0.0,ES,2020-04-05 15:50:32
515,San Luis,-33.3,-66.34,overcast clouds,73.38,39,100,3.71,0.0,0.0,AR,2020-04-05 15:50:33
516,Olinda,-8.01,-34.86,scattered clouds,87.8,70,40,9.17,0.0,0.0,BR,2020-04-05 15:50:33
517,Rawson,-43.3,-65.1,overcast clouds,64.26,36,86,26.69,0.0,0.0,AR,2020-04-05 15:55:10
518,Constitucion,-35.33,-72.42,clear sky,60.94,50,0,10.71,0.0,0.0,CL,2020-04-05 15:50:33
519,Saint Anthony,45.02,-93.22,clear sky,45.0,48,1,10.29,0.0,0.0,US,2020-04-05 15:55:05
520,Santa Maria,-29.68,-53.81,clear sky,80.02,33,0,4.54,0.0,0.0,BR,2020-04-05 15:50:35
521,Albion,42.24,-84.75,clear sky,45.0,60,1,3.36,0.0,0.0,US,2020-04-05 15:47:05
522,Kulu,39.1,33.08,broken clouds,64.42,32,83,11.56,0.0,0.0,TR,2020-04-05 15:50:35
523,Asosa,10.07,34.53,broken clouds,90.55,14,63,6.89,0.0,0.0,ET,2020-04-05 15:50:35
524,Port-Cartier,50.03,-66.87,mist,35.01,95,90,10.29,0.0,0.0,CA,2020-04-05 15:52:28
525,Gorodets,56.65,43.48,broken clouds,39.0,66,75,4.47,0.0,0.0,RU,2020-04-05 15:50:35
526,Katete,-0.78,29.75,light rain,75.38,45,50,1.66,0.82,0.0,UG,2020-04-05 15:50:36
527,George,-33.96,22.46,broken clouds,66.2,72,75,6.93,0.0,0.0,ZA,2020-04-05 15:46:23
528,Hobyo,5.35,48.53,overcast clouds,84.34,66,100,15.68,0.0,0.0,SO,2020-04-05 15:55:11
529,La Tuque,47.43,-72.78,light rain,36.9,89,100,4.23,1.53,0.0,CA,2020-04-05 15:55:11
530,Mbanza-Ngungu,-5.25,14.87,light rain,77.76,72,86,7.63,1.69,0.0,CD,2020-04-05 15:50:36
531,Sicuani,-14.27,-71.23,overcast clouds,50.41,23,99,3.31,0.0,0.0,PE,2020-04-05 15:50:37
532,Haukipudas,65.18,25.35,few clouds,30.2,63,15,12.75,0.0,0.0,FI,2020-04-05 15:50:37
533,Rottingdean,50.81,-0.06,clear sky,70.0,62,3,16.11,0.0,0.0,GB,2020-04-05 15:50:37
534,Grindavik,63.84,-22.43,snow,28.4,100,90,35.57,0.0,0.0,IS,2020-04-05 15:52:27
535,Fostoria,41.16,-83.42,overcast clouds,46.4,81,90,11.41,0.0,0.0,US,2020-04-05 15:49:20
536,Rosetta,31.4,30.42,clear sky,64.36,73,3,17.47,0.0,0.0,EG,2020-04-05 15:50:38
537,Muli,2.92,73.57,light rain,84.7,71,67,8.32,0.81,0.0,MV,2020-04-05 15:50:38
538,Panama City,8.99,-79.52,scattered clouds,89.6,58,40,13.87,0.0,0.0,PA,2020-04-05 15:54:23
539,Bakchar,57.02,82.07,broken clouds,33.64,87,73,8.72,0.0,0.0,RU,2020-04-05 15:50:38
540,San Martin,-33.08,-68.47,scattered clouds,69.8,56,40,5.82,0.0,0.0,AR,2020-04-05 15:50:39
541,Bouna,9.27,-3.0,overcast clouds,104.31,24,100,2.08,0.0,0.0,CI,2020-04-05 15:50:39
542,Pitanga,-24.76,-51.76,clear sky,76.21,34,9,4.5,0.0,0.0,BR,2020-04-05 15:50:39
543,Marsa Matruh,31.35,27.25,clear sky,64.4,68,0,14.99,0.0,0.0,EG,2020-04-05 15:55:13
544,Walcz,53.28,16.47,clear sky,55.0,36,0,7.0,0.0,0.0,PL,2020-04-05 15:50:39
545,Pangody,65.85,74.49,light snow,32.99,96,100,6.13,0.0,0.97,RU,2020-04-05 15:55:13
546,Ourossogui,15.61,-13.32,clear sky,109.4,11,0,4.7,0.0,0.0,SN,2020-04-05 15:50:40
547,Omboue,-1.57,9.26,broken clouds,85.24,71,81,6.24,0.0,0.0,GA,2020-04-05 15:50:40
548,Berlevag,70.86,29.09,scattered clouds,30.2,79,40,26.4,0.0,0.0,NO,2020-04-05 15:55:14
549,Navrongo,10.9,-1.09,overcast clouds,107.24,17,100,2.98,0.0,0.0,GH,2020-04-05 15:46:51
550,Kabalo,-6.05,26.92,light rain,82.27,71,70,1.43,2.43,0.0,CD,2020-04-05 15:50:40
551,Sumbe,-11.21,13.84,moderate rain,83.01,75,19,8.52,3.48,0.0,AO,2020-04-05 15:50:40
552,Orange Walk,17.83,-88.83,broken clouds,86.0,74,75,10.29,0.0,0.0,BZ,2020-04-05 15:50:41
553,Makat,47.65,53.35,broken clouds,53.49,51,75,15.21,0.0,0.0,KZ,2020-04-05 15:55:14
554,Kadi,23.3,72.33,smoke,87.8,25,0,3.36,0.0,0.0,IN,2020-04-05 15:50:41
555,Yarada,17.65,83.27,mist,84.2,74,75,4.7,0.0,0.0,IN,2020-04-05 15:50:41
556,Margineni,46.9,26.63,clear sky,57.2,19,3,11.41,0.0,0.0,RO,2020-04-05 15:50:41
557,Savonlinna,61.87,28.88,broken clouds,34.0,31,71,13.87,0.0,0.0,FI,2020-04-05 15:50:41
558,Ritchie,-29.04,24.6,clear sky,80.6,36,7,9.17,0.0,0.0,ZA,2020-04-05 15:50:41
559,Pavino,59.11,46.14,light snow,33.3,83,89,3.58,0.0,0.27,RU,2020-04-05 15:50:42
560,Garowe,8.41,48.48,few clouds,89.64,21,15,7.67,0.0,0.0,SO,2020-04-05 15:50:42
561,Havelock,34.88,-76.9,clear sky,64.99,59,1,3.36,0.0,0.0,US,2020-04-05 15:52:37
562,Lubumbashi,-11.66,27.48,scattered clouds,74.73,55,49,3.4,0.0,0.0,CD,2020-04-05 15:50:33
